name_en,latitude,longitude,radius
Cultural Landscape and Archaeological Remains of the Bamiyan Valley,34.84694,67.82525,4
Minaret and Archaeological Remains of Jam,34.39641667,64.51588889,4
Historic Centres of Berat and Gjirokastra ,40.06944444,20.13333333,4
Butrint,39.75111111,20.02611111,4
Al Qal'a of Beni Hammad,35.81844,4.78684,4
Tassili n'Ajjer,25.5,9,4
M'Zab Valley,32.48333,3.68333,4
Djémila,36.32056,5.73667,4
Tipasa,36.55,2.383333333,4
Timgad,35.48416667,6.468861111,4
Kasbah of Algiers,36.78333,3.06028,4
Madriu-Perafita-Claror Valley,42.49472222,1.595555556,4
"Mbanza Kongo, Vestiges of the Capital of the former Kingdom of Kongo",-6.268888889,14.24972222,4
Antigua Naval Dockyard and Related Archaeological Sites,17.00694444,-61.76166667,4
Los Glaciares National Park,-50,-73.24944,4
Iguazu National Park,-25.51805556,-54.13333333,4
"Cueva de las Manos, Río Pinturas",-47.15,-70.66666667,4
Península Valdés,-42.5,-64,4
Ischigualasto / Talampaya Natural Parks,-30,-68,4
Jesuit Block and Estancias of Córdoba,-31.42056,-64.19111,4
Quebrada de Humahuaca,-23.19986111,-65.34886111,4
Los Alerces National Park,-42.8528,-71.8728,4
Monasteries of Haghpat and Sanahin,41.095,44.71028,4
Monastery of Geghard and the Upper Azat Valley,40.15889,44.79667,4
Cathedral and Churches of Echmiatsin and the Archaeological Site of Zvartnots,40.15931,44.29514,4
Kakadu National Park,-12.83333333,132.8333333,4
Great Barrier Reef,-18.28611111,147.7,4
Sydney Opera House,-33.85666667,151.2152778,4
Willandra Lakes Region,-34,143,4
Tasmanian Wilderness,-41.58333333,145.4166667,4
Lord Howe Island Group,-31.56555556,159.0883333,4
Gondwana Rainforests of Australia,-28.25,150.05,4
Ulu<U>r</U>u-Kata Tju<U>t</U>a National Park,-25.33333333,131,4
Wet Tropics of Queensland,-15.65,144.9666667,4
Heard and McDonald Islands,-53.1,73.5,4
"Shark Bay, Western Australia",-25.48611111,113.4361111,4
Macquarie Island,-54.59472222,158.8955556,4
Fraser Island,-25.21666667,153.1333333,4
Australian Fossil Mammal Sites (Riversleigh / Naracoorte),-19.08333333,138.7166667,4
Greater Blue Mountains Area,-33.7,150,4
Purnululu National Park,-17.5,128.5,4
Royal Exhibition Building and Carlton Gardens,-37.80611111,144.9702778,4
Australian Convict Sites,-33.37833333,150.9944444,4
Ningaloo Coast,-22.5625,113.8102778,4
Budj Bim Cultural Landscape,-38.08111111,141.8852778,4
Historic Centre of the City of Salzburg,47.80055556,13.04333333,4
Semmering Railway,47.64877778,15.82797222,4
Palace and Gardens of Schönbrunn,48.18666667,16.31333333,4
Hallstatt-Dachstein / Salzkammergut Cultural Landscape,47.55944444,13.64638889,4
City of Graz – Historic Centre and Schloss Eggenberg,47.07416667,15.39166667,4
Wachau Cultural Landscape,48.36444444,15.43416667,4
Historic Centre of Vienna,48.21666667,16.38333333,4
Walled City of Baku with the Shirvanshah's Palace and Maiden Tower,40.36666667,49.83333333,4
Gobustan Rock Art Cultural Landscape,40.125,49.375,4
Historic Centre of Sheki with the Khan’s Palace,41.20333333,47.1875,4
Qal’at al-Bahrain – Ancient Harbour and Capital of Dilmun,26.23306,50.52722222,4
"Pearling, Testimony of an Island Economy",26.24128,50.61351,4
Dilmun Burial Mounds,26.14972222,50.51277778,4
Historic Mosque City of Bagerhat,22.66667,89.8,4
Ruins of the Buddhist Vihara at Paharpur,25.03333333,88.98333333,4
The Sundarbans,21.95,89.18333,4
Historic Bridgetown and its Garrison,13.09666667,-59.61388889,4
Mir Castle Complex,53.45108333,26.47272222,4
"Architectural, Residential and Cultural Complex of the Radziwill Family at Nesvizh",53.22278,26.69139,4
Flemish Béguinages,51.03097222,4.47375,4
"The Four Lifts on the Canal du Centre and their Environs, La Louvière and Le Roeulx (Hainaut)",50.48111,4.13722,4
"La Grand-Place, Brussels",50.84668,4.35242,4
Historic Centre of Brugge,51.20891,3.22527,4
Major Town Houses of the Architect Victor Horta (Brussels),50.82806,4.36223,4
Neolithic Flint Mines at Spiennes (Mons),50.43077,3.97879,4
Notre-Dame Cathedral in Tournai,50.60603,3.38926,4
Plantin-Moretus House-Workshops-Museum Complex,51.21833,4.39778,4
Stoclet House,50.835,4.416111111,4
Major Mining Sites of Wallonia,50.43527778,3.838333333,4
Belize Barrier Reef Reserve System,16.75,-87.05833333,4
Royal Palaces of Abomey,7.183333333,1.983333333,4
City of Potosí,-19.58361,-65.75306,4
Jesuit Missions of the Chiquitos,-16,-60.5,4
Historic City of Sucre,-19.04306,-65.25917,4
Tiwanaku: Spiritual and Political Centre of the Tiwanaku Culture,-16.55833333,-68.67778,4
Fuerte de Samaipata,-18.16666667,-63.81666667,4
Noel Kempff Mercado National Park,-14.26667,-60.86667,4
Old Bridge Area of the Old City of Mostar,43.34812,17.81092,4
Mehmed Paša Sokolović Bridge in Višegrad,43.78144444,19.288025,4
Tsodilo,-18.75,21.73333333,4
Okavango Delta,-19.28333333,22.9,4
Historic Town of Ouro Preto,-20.38888889,-43.50555556,4
Historic Centre of the Town of Olinda,-8.013333333,-34.845,4
Historic Centre of Salvador de Bahia,-12.96666667,-38.5,4
Sanctuary of Bom Jesus do Congonhas,-20.49972222,-43.85777778,4
Iguaçu National Park,-25.68333,-54.43333,4
Brasilia,-15.78333,-47.9,4
Serra da Capivara National Park,-8.416666667,-42.33333333,4
Historic Centre of São Luís,-2.514166667,-44.3025,4
Historic Centre of the Town of Diamantina,-18.23333333,-43.6,4
Discovery Coast Atlantic Forest Reserves,-16.5,-39.25,4
Atlantic Forest South-East Reserves,-24.16667,-48,4
Historic Centre of the Town of Goiás,-15.93328,-50.13336,4
Central Amazon Conservation Complex,-2.333333333,-62.00833333,4
Pantanal Conservation Area,-17.71667,-57.38333,4
Brazilian Atlantic Islands: Fernando de Noronha and Atol das Rocas Reserves,-3.857944444,-32.42511111,4
Cerrado Protected Areas: Chapada dos Veadeiros and Emas National Parks,-14.00569444,-47.68461111,4
Rio de Janeiro: Carioca Landscapes between the Mountain and the Sea,-22.94777778,-43.29138889,4
São Francisco Square in the Town of São Cristóvão,-11.01611111,-37.21,4
Paraty and Ilha Grande – Culture and Biodiversity,-23.01860556,-44.68536944,4
Pampulha Modern Ensemble,-19.85194444,-43.97361111,4
Valongo Wharf Archaeological Site,-22.89711111,-43.18739444,4
Boyana Church,42.65,23.26666667,4
Madara Rider,43.3,27.15,4
Thracian Tomb of Kazanlak,42.61666667,25.4,4
Rock-Hewn Churches of Ivanovo,43.71666667,25.96666667,4
Rila Monastery,42.11666667,23.4,4
Ancient City of Nessebar,42.65611,27.73,4
Srebarna Nature Reserve,44.11444,27.07806,4
Pirin National Park,41.74272222,23.43047222,4
Thracian Tomb of Sveshtari,43.66667,26.66667,4
Ruins of Loropéni,10.25,-3.583333333,4
Ancient ferrous metallurgy sites of Burkina Faso,12.58775833,-3.328986111,4
"Cidade Velha, Historic Centre of Ribeira Grande",14.91513889,-23.60519444,4
Angkor,13.43333333,103.8333333,4
Temple of Preah Vihear,14.38833333,104.6838889,4
"Temple Zone of Sambor Prei Kuk, Archaeological Site of Ancient Ishanapura",12.8725,105.0430556,4
Dja Faunal Reserve,3,13,4
L’Anse aux Meadows National Historic Site,51.46666667,-55.61666667,4
Nahanni National Park,61.54722222,-125.5894444,4
Dinosaur Provincial Park,50.76777778,-111.4922222,4
S<U>G</U>ang Gwaay,52.095,-131.2202778,4
Head-Smashed-In Buffalo Jump,49.74944444,-113.6238889,4
Wood Buffalo National Park,59.35833333,-112.2933333,4
Historic District of Old Québec,46.80944444,-71.21055556,4
Canadian Rocky Mountain Parks,51.42472222,-116.4797222,4
Gros Morne National Park,49.6125,-57.53138889,4
Miguasha National Park,48.105,-66.35305556,4
Old Town Lunenburg,44.37611111,-64.30916667,4
Rideau Canal,44.99438611,-75.765125,4
Joggins Fossil Cliffs,45.70972222,-64.43583333,4
Landscape of Grand Pré,45.11833333,-64.30722222,4
Red Bay Basque Whaling Station,51.726925,-56.42952222,4
Pimachiowin Aki,51.82641667,-95.41127778,4
Mistaken Point,46.635,-53.21111111,4
Writing-on-Stone / Áísínai’pi,49.075,-111.6333333,4
Manovo-Gounda St Floris National Park,9,21.5,4
Lakes of Ounianga,19.055,20.50555556,4
Ennedi Massif: Natural and Cultural Landscape,17.04166667,21.86277778,4
Rapa Nui National Park,-27.15,-109.45,4
Historic Quarter of the Seaport City of Valparaíso,-33.04063889,-71.628,4
Churches of Chiloé,-42.5,-73.76666667,4
Humberstone and Santa Laura Saltpeter Works,-20.20582,-69.79406,4
Sewell Mining Town,-34.08444444,-70.38277778,4
Mount Taishan,36.26667,117.1,4
The Great Wall,40.41667,116.08333,4
Imperial Palaces of the Ming and Qing Dynasties in Beijing and Shenyang,41.79416667,123.4469444,4
Mogao Caves,40.13333,94.81667,4
Mausoleum of the First Qin Emperor,34.38333333,109.1,4
Peking Man Site at Zhoukoudian,39.73333333,115.9166667,4
Mount Huangshan,30.16667,118.18333,4
Jiuzhaigou Valley Scenic and Historic Interest Area,33.08333,103.91667,4
Huanglong Scenic and Historic Interest Area,32.75417,103.82222,4
Wulingyuan Scenic and Historic Interest Area,29.33333,110.5,4
"Mountain Resort and its Outlying Temples, Chengde",40.98694,117.93833,4
Temple and Cemetery of Confucius and the Kong Family Mansion in Qufu,35.61167,116.975,4
Ancient Building Complex in the Wudang Mountains,32.46667,111,4
"Historic Ensemble of the Potala Palace, Lhasa",29.65792,91.11717,4
Lushan National Park,29.43333333,115.8666667,4
"Mount Emei Scenic Area, including Leshan Giant Buddha Scenic Area",29.5449,103.76925,4
Old Town of Lijiang,26.86667,100.23333,4
Ancient City of Ping Yao,37.20139,112.15444,4
Classical Gardens of Suzhou,31.31666667,120.45,4
"Summer Palace, an Imperial Garden in Beijing",39.91055556,116.1411111,4
Temple of Heaven: an Imperial Sacrificial Altar in Beijing,39.84555556,116.4447222,4
Mount Wuyi,27.71667,117.68333,4
Dazu Rock Carvings,29.70111,105.705,4
Mount Qingcheng and the Dujiangyan Irrigation System,31.00167,103.60528,4
Ancient Villages in Southern Anhui – Xidi and Hongcun,29.90444444,117.9875,4
Longmen Grottoes,34.46666667,112.4666667,4
Imperial Tombs of the Ming and Qing Dynasties,41.70722222,124.7938889,4
Yungang Grottoes,40.10972,113.12222,4
Three Parallel Rivers of Yunnan Protected Areas,27.895,98.40638889,4
Historic Centre of Macao,22.19129194,113.5364611,4
Cultural Landscape of Honghe Hani Rice Terraces ,23.09327778,102.7799806,4
Kaiping Diaolou and Villages,22.28551944,112.5658611,4
Fujian <em>Tulou</em>,25.02305556,117.6858333,4
Yin Xu,36.12666667,114.3138889,4
Capital Cities and Tombs of the Ancient Koguryo Kingdom,41.15694444,126.1872222,4
"Sichuan Giant Panda Sanctuaries - Wolong, Mt Siguniang and Jiajin Mountains ",30.83333333,103,4
South China Karst,24.92333333,110.3544444,4
Mount Wutai,39.03055556,113.5633333,4
Mount Sanqingshan National Park,28.91583333,118.0644444,4
Historic Monuments of Dengfeng in “The Centre of Heaven and Earth”,34.45874722,113.0677194,4
West Lake Cultural Landscape of Hangzhou,30.2375,120.1408333,4
China Danxia,28.42194444,106.0425,4
Chengjiang Fossil Site,24.66888889,102.9772222,4
Site of Xanadu,42.358,116.1851278,4
Xinjiang Tianshan,41.96833333,80.35416667,4
The Grand Canal,34.69388889,112.4683333,4
Tusi Sites,28.99861111,109.9669444,4
Zuojiang Huashan Rock Art Cultural Landscape,22.25555556,107.0230556,4
Hubei Shennongjia,31.46972222,110.2438889,4
Qinghai Hoh Xil,35.38027778,92.43916667,4
"Kulangsu, a Historic International Settlement",24.4475,118.0619444,4
Fanjingshan,27.89555556,108.68,4
Archaeological Ruins of Liangzhu City,30.39555556,119.9908333,4
Migratory Bird Sanctuaries along the Coast of Yellow Sea-Bohai Gulf of China (Phase I),32.93194444,121.0168139,4
"Port, Fortresses and Group of Monuments, Cartagena",10.41666667,-75.53333333,4
Los Katíos National Park,7.666666667,-77,4
Historic Centre of Santa Cruz de Mompox,9.233333333,-74.43333333,4
National Archeological Park of Tierradentro,2.583333333,-76.03333333,4
San Agustín Archaeological Park,1.916666667,-76.23333333,4
Coffee Cultural Landscape of Colombia,5.471666667,-75.68166667,4
Chiribiquete National Park – “The Maloca of the Jaguar”,0.5252777778,-72.79722222,4
Malpelo Fauna and Flora Sanctuary,3.966666667,-81.61666667,4
Cocos Island National Park,5.533333333,-87.06666667,4
Area de Conservación Guanacaste,10.85,-85.61666667,4
Precolumbian Chiefdom Settlements with Stone Spheres of the Diquís,8.911388889,-83.4775,4
Taï National Park,5.75,-7.66667,4
Comoé National Park,9,-4,4
Historic Town of Grand-Bassam,5.195833333,3.736388889,4
Old City of Dubrovnik,42.65056,18.09139,4
Historical Complex of Split with the Palace of Diocletian,43.50944,16.44333,4
Plitvice Lakes National Park,44.87778,15.61444,4
Episcopal Complex of the Euphrasian Basilica in the Historic Centre of Poreč,45.22917,13.59444,4
Historic City of Trogir,43.5125,16.25167,4
The Cathedral of St James in Šibenik,43.73629,15.89038,4
Stari Grad Plain,43.18166667,16.63861111,4
Old Havana and its Fortification System,23.13333333,-82.35,4
Trinidad and the Valley de los Ingenios,21.80305556,-79.98444444,4
Alejandro de Humboldt National Park,20.45,-75,4
Viñales Valley,22.61667,-83.71667,4
"San Pedro de la Roca Castle, Santiago de Cuba",19.96666667,-75.87083333,4
Desembarco del Granma National Park,19.88333,-77.63333,4
Archaeological Landscape of the First Coffee Plantations in the South-East of Cuba,20.03,-75.39138889,4
Urban Historic Centre of Cienfuegos ,22.14722,-80.45278,4
Historic Centre of Camagüey,21.37861111,-77.91861111,4
Paphos,34.75833,32.40556,4
Painted Churches in the Troodos Region,34.92027778,33.09583333,4
Choirokoitia,34.79833,33.34333,4
Historic Centre of Prague,50.08972,14.41944,4
Historic Centre of Český Krumlov,48.81666667,14.31666667,4
Historic Centre of Telč,49.18333,15.45,4
Pilgrimage Church of St John of Nepomuk at Zelená Hora,49.5802,15.94205833,4
Kutná Hora: Historical Town Centre with the Church of St Barbara and the Cathedral of Our Lady at Sedlec,49.95,15.26666667,4
Lednice-Valtice Cultural Landscape,48.77583,16.775,4
Holy Trinity Column in Olomouc,49.59393611,17.25045833,4
Gardens and Castle at Kroměříž,49.3,17.37722222,4
Holašovice Historic Village,48.95972222,14.25277778,4
Litomyšl Castle,49.87361,16.31444,4
Tugendhat Villa in Brno,49.20718333,16.61605556,4
Jewish Quarter and St Procopius' Basilica in Třebíč,49.21722222,15.87888889,4
Landscape for Breeding and Training of Ceremonial Carriage Horses at Kladruby nad Labem,50.05665,15.48425833,4
Complex of Koguryo Tombs,38.86305556,125.415,4
Historic Monuments and Sites in Kaesong,37.98166667,126.5080556,4
Virunga National Park,0.916666667,29.16666667,4
Garamba National Park,4,29.25,4
Kahuzi-Biega National Park,-2.5,28.75,4
Salonga National Park,-2,21,4
Okapi Wildlife Reserve,2,28.5,4
Roskilde Cathedral,55.64222222,12.07972222,4
Kronborg Castle,56.03889,12.62083333,4
"Jelling Mounds, Runic Stones and Church",55.75638889,9.42,4
Ilulissat Icefjord,69.13333333,-49.5,4
Stevns Klint,55.26722222,12.42333333,4
"Christiansfeld, a Moravian Church Settlement",55.35555556,9.481388889,4
The par force hunting landscape in North Zealand,55.91361111,12.35777778,4
Kujataa Greenland: Norse and Inuit Farming at the Edge of the Ice Cap,61.16444444,-45.59805556,4
Aasivissuit – Nipisat. Inuit Hunting Ground between Ice and Sea,67.06393056,-51.43320556,4
Morne Trois Pitons National Park,15.26666667,-61.28333333,4
Colonial City of Santo Domingo,18.48333333,-69.91666667,4
Galápagos Islands,-0.81667,-91,4
City of Quito,-0.003888889,-78.5,4
Sangay National Park,-1.83333,-78.33333,4
Historic Centre of Santa Ana de los Ríos de Cuenca,-2.883333333,-78.98333333,4
Memphis and its Necropolis – the Pyramid Fields from Giza to Dahshur,29.97604,31.13041,4
Ancient Thebes with its Necropolis,25.73333,32.6,4
Nubian Monuments from Abu Simbel to Philae,22.33722222,31.62580556,4
Historic Cairo,30.05,31.26111,4
Abu Mena,30.83583333,29.66666667,4
Saint Catherine Area,28.55623,33.97543,4
Wadi Al-Hitan (Whale Valley),29.33333,30.18333,4
Joya de Cerén Archaeological Site,13.8275,-89.36916667,4
Asmara: A Modernist African City,15.33527778,38.93583333,4
Historic Centre (Old Town) of Tallinn,59.43333,24.73333333,4
Simien National Park,13.18333333,38.06666667,4
Lower Valley of the Awash,11.10006,40.57939,4
Tiya,8.43491,38.6121,4
Aksum,14.13019,38.71861,4
Lower Valley of the Omo,4.8,35.96666667,4
"Rock-Hewn Churches, Lalibela",12.02935,39.04042,4
"Fasil Ghebbi, Gondar Region",12.60692,37.46617,4
"Harar Jugol, the Fortified Historic Town",9.308888889,42.13777778,4
Konso Cultural Landscape,5.3,37.4,4
Levuka Historical Port Town,-17.68337778,178.8345333,4
Bronze Age Burial Site of Sammallahdenmäki,61.12056,21.7775,4
Old Rauma,61.12806,21.51167,4
Fortress of Suomenlinna,60.14722,24.98722,4
Petäjävesi Old Church,62.25,25.18333,4
Verla Groundwood and Board Mill,61.06194,26.64083,4
Mont-Saint-Michel and its Bay,48.63556,-1.51056,4
Chartres Cathedral,48.4475,1.487222222,4
Palace and Park of Versailles,48.805,2.119444444,4
"Vézelay, Church and Hill",47.46638889,3.748333333,4
Prehistoric Sites and Decorated Caves of the Vézère Valley,45.0575,1.17,4
Palace and Park of Fontainebleau,48.40194444,2.698055556,4
Amiens Cathedral,49.895,2.301666667,4
"Roman Theatre and its Surroundings and the ""Triumphal Arch"" of Orange",44.13572222,4.808416667,4
"Arles, Roman and Romanesque Monuments",43.67763889,4.630694444,4
Cistercian Abbey of Fontenay,47.63944,4.38911,4
"From the Great Saltworks of Salins-les-Bains to the Royal Saltworks of Arc-et-Senans, the Production of Open-pan Salt ",46.9375,5.876388889,4
"Historic Centre of Avignon: Papal Palace, Episcopal Ensemble and Avignon Bridge",43.95277778,4.806111111,4
"Place Stanislas, Place de la Carrière and Place d'Alliance in Nancy",48.69361111,6.183333333,4
Abbey Church of Saint-Savin sur Gartempe,46.56472,0.86611,4
"Gulf of Porto: Calanche of Piana, Gulf of Girolata, Scandola Reserve",42.32519444,8.628833333,4
Pont du Gard (Roman Aqueduct),43.94722222,4.535277778,4
Historic Fortified City of Carcassonne,43.21055556,2.358888889,4
"Strasbourg, Grande-Île and <em>Neustadt</em>",48.58444444,7.748888889,4
"Paris, Banks of the Seine",48.85833333,2.294166667,4
"Cathedral of Notre-Dame, Former Abbey of Saint-Rémi and Palace of Tau, Reims",49.25333333,4.032777778,4
Bourges Cathedral,47.08222222,2.398333333,4
Canal du Midi,43.61138889,1.416388889,4
Routes of Santiago de Compostela in France,45.18405556,0.722944444,4
Historic Site of Lyon,45.76722,4.83333,4
"Provins, Town of Medieval Fairs",48.55972222,3.298888889,4
Jurisdiction of Saint-Emilion,44.89472222,-0.155277778,4
The Loire Valley between Sully-sur-Loire and Chalonnes,47.39889,0.70278,4
Lagoons of New Caledonia: Reef Diversity and Associated Ecosystems,-20.41194444,164.5663889,4
"The Causses and the Cévennes, Mediterranean agro-pastoral Cultural Landscape",44.22027778,3.473055556,4
"Le Havre, the City Rebuilt by Auguste Perret",49.49278,0.1075,4
"Bordeaux, Port of the Moon",44.83888889,-0.5722222222,4
Fortifications of Vauban,47.23611111,6.026944444,4
"Pitons, cirques and remparts of Reunion Island",-21.09944444,55.48,4
Episcopal City of Albi,43.92833333,2.1425,4
Nord-Pas de Calais Mining Basin,50.4625,3.546111111,4
"The Climats, terroirs of Burgundy",47.05805556,4.864444444,4
"Decorated Cave of Pont d’Arc, known as Grotte Chauvet-Pont d’Arc, Ardèche",44.3875,4.416111111,4
Chaîne des Puys - Limagne fault tectonic arena,45.77938889,2.965111111,4
"Champagne Hillsides, Houses and Cellars",49.0775,3.946111111,4
Taputapuātea,-16.8414,-151.3723778,4
French Austral Lands and Seas,-49.38036111,69.35280556,4
Ecosystem and Relict Cultural Landscape of Lopé-Okanda,-0.5,11.5,4
Kunta Kinteh Island and Related Sites,13.31616667,-16.35719444,4
Historical Monuments of Mtskheta,41.84389,44.71639,4
Upper Svaneti,42.91639,43.01139,4
Gelati Monastery,42.29472222,42.76833333,4
Aachen Cathedral ,50.77444444,6.084444444,4
Speyer Cathedral,49.31666667,8.443055556,4
Würzburg Residence with the Court Gardens and Residence Square,49.79278,9.93889,4
St Mary's Cathedral and St Michael's Church at Hildesheim,52.15278,9.94389,4
Pilgrimage Church of Wies,47.68127778,10.90013889,4
Hanseatic City of Lübeck,53.86667,10.69167,4
Castles of Augustusburg and Falkenlust at Brühl,50.82502778,6.909777778,4
Cologne Cathedral,50.94111111,6.957222222,4
"Roman Monuments, Cathedral of St Peter and Church of Our Lady in Trier",49.75,6.633333333,4
Abbey and Altenmünster of Lorsch,49.65369,8.56858,4
Palaces and Parks of Potsdam and Berlin,52.4,13.03333333,4
Garden Kingdom of Dessau-Wörlitz,51.8425,12.42083,4
"Collegiate Church, Castle and Old Town of Quedlinburg",51.78333,11.15,4
Maulbronn Monastery Complex,49.00083,8.81306,4
"Mines of Rammelsberg, Historic Town of Goslar and Upper Harz Water Management  System",51.82,10.34,4
Town of Bamberg,49.89166667,10.88888889,4
Völklingen Ironworks,49.24444,6.85,4
Messel Pit Fossil Site,49.91667,8.75389,4
"Bauhaus and its Sites in Weimar, Dessau and Bernau",50.97477778,11.3295,4
Luther Memorials in Eisleben and Wittenberg,51.86472,12.65278,4
Classical Weimar,50.9775,11.32861,4
"Museumsinsel (Museum Island), Berlin",52.51972222,13.39861111,4
Wartburg Castle,50.96677778,10.307,4
Monastic Island of Reichenau,47.69872222,9.061305556,4
Zollverein Coal Mine Industrial Complex in Essen,51.49138889,7.046111111,4
Upper Middle Rhine Valley,50.17361111,7.694166667,4
Historic Centres of Stralsund and Wismar,54.3025,13.08527778,4
Town Hall and Roland on the Marketplace of Bremen,53.07597222,8.807472222,4
Old town of Regensburg with Stadtamhof,49.02055556,12.09916667,4
Berlin Modernism Housing Estates,52.44833333,13.45,4
Fagus Factory in Alfeld,51.98361111,9.811111111,4
Margravial Opera House Bayreuth,49.94444444,11.57861111,4
Bergpark Wilhelmshöhe,51.31583333,9.393055556,4
Carolingian Westwork and Civitas Corvey,51.77827778,9.41025,4
Speicherstadt and Kontorhaus District with Chilehaus,53.54555556,9.999444444,4
Naumburg Cathedral,51.15480556,11.804,4
Caves and Ice Age Art in the Swabian Jura,48.38777778,9.765555556,4
Archaeological Border complex of Hedeby and the Danevirke,54.46194444,9.454111111,4
Water Management System of Augsburg,48.36547222,10.902,4
"Forts and Castles, Volta, Greater Accra, Central and Western Regions",5.39103,-0.49361,4
Asante Traditional Buildings,6.401111111,-1.625833333,4
Temple of Apollo Epicurius at Bassae,37.43498,21.89694,4
Archaeological Site of Delphi,38.48149,22.49617,4
"Acropolis, Athens",37.97087,23.72618,4
Mount Athos,40.26667,24.21667,4
Meteora,39.71667,21.63333,4
Paleochristian and Byzantine Monuments of Thessalonika,40.63833,22.965,4
Sanctuary of Asklepios at Epidaurus,37.66666667,23.11666667,4
Medieval City of Rhodes,36.44722,28.22778,4
Archaeological Site of Mystras,37.08056,22.36667,4
Archaeological Site of Olympia,37.65,21.66666667,4
Delos,37.4,25.26667,4
"Monasteries of Daphni, Hosios Loukas and Nea Moni of Chios",38.4,22.75,4
Pythagoreion and Heraion of Samos,37.69083,26.94333,4
Archaeological Site of Aigai (modern name Vergina),40.47139,22.31833,4
Archaeological Sites of Mycenae and Tiryns,37.73333333,22.75,4
The Historic Centre (Chorá) with the Monastery of Saint-John the Theologian and the Cave of the Apocalypse on the Island of Pátmos,37.3,26.55,4
Old Town of Corfu,39.62394139,19.9275,4
Archaeological Site of Philippi,41.01472222,24.28527778,4
Tikal National Park,17.21666667,-89.61666667,4
Antigua Guatemala,14.56666667,-90.66666667,4
Archaeological Park and Ruins of Quirigua,15.27059,-89.04025,4
"National History Park – Citadel, Sans Souci, Ramiers",19.57361,-72.24417,4
Vatican City,41.90216,12.45736,4
Maya Site of Copan,14.85,-89.13333,4
Río Plátano Biosphere Reserve,15.74444444,-84.675,4
"Budapest, including the Banks of the Danube, the Buda Castle Quarter and Andrássy Avenue",47.48242,19.07067,4
Old Village of Hollókő and its Surroundings,47.99444,19.52917,4
Hortobágy National Park - the <i>Puszta</i>,47.59458,21.15678,4
Millenary Benedictine Abbey of Pannonhalma and its Natural Environment,47.55889,17.78444,4
Early Christian Necropolis of Pécs (Sopianae),46.07444,18.22778,4
Tokaj Wine Region Historic Cultural Landscape,48.15,21.35,4
Þingvellir National Park,64.25380556,-21.03725,4
Surtsey,63.30305556,-20.60222222,4
Vatnajökull National Park - dynamic nature of fire and ice,64.577363,-16.88154044,4
Red Fort Complex,28.65555556,77.24083333,4
"Humayun's Tomb, Delhi",28.59333,77.25056,4
"Qutb Minar and its Monuments, Delhi",28.52583,77.18528,4
Churches and Convents of Goa,15.50222,73.91167,4
Group of Monuments at Pattadakal,15.94833,75.81667,4
Khajuraho Group of Monuments,24.85222,79.92222,4
Group of Monuments at Hampi,15.31444,76.47167,4
Ajanta Caves,20.55333,75.7,4
Ellora Caves,20.02639,75.17917,4
Elephanta Caves,18.96667,72.93583,4
"Sun Temple, Konârak",19.8875,86.09472,4
Hill Forts of Rajasthan,24.88333333,74.64611111,4
Group of Monuments at Mahabalipuram,12.61667,80.19167,4
Great Living Chola Temples,10.78305556,79.1325,4
Agra Fort,27.18333333,78.03333333,4
Taj Mahal,27.17417,78.04222,4
Fatehpur Sikri,27.09444,77.66417,4
Nanda Devi and Valley of Flowers National Parks  ,30.71667,79.66667,4
Kaziranga National Park,26.66666667,93.41666667,4
Manas Wildlife Sanctuary,26.725,91.03055556,4
Keoladeo National Park,27.15888889,77.50861111,4
Sundarbans National Park,21.945,88.89583333,4
Buddhist Monuments at Sanchi,23.47944,77.73972,4
"Rani-ki-Vav (the Queen’s Stepwell) at Patan, Gujarat",23.85888889,72.10166667,4
Rock Shelters of Bhimbetka,22.92777778,77.58333333,4
Mountain Railways of India,11.51028,76.93583,4
Chhatrapati Shivaji Terminus (formerly Victoria Terminus),18.94012222,72.83620278,4
Mahabodhi Temple Complex at Bodh Gaya,24.69528,84.99389,4
Champaner-Pavagadh Archaeological Park,22.48333333,73.53333333,4
"The Jantar Mantar, Jaipur",26.92472222,75.825,4
Western Ghats,8.529722222,77.24972222,4
Great Himalayan National Park Conservation Area,31.83333333,77.58333333,4
Victorian Gothic and Art Deco Ensembles of Mumbai,18.92980556,72.83008333,4
"Archaeological Site of Nalanda Mahavihara at Nalanda, Bihar",25.13666667,85.44388889,4
Khangchendzonga National Park,27.76472222,88.37722222,4
Historic City of Ahmadabad,23.02638889,72.58805556,4
"Jaipur City, Rajasthan",26.90786111,75.78722222,4
Borobudur Temple Compounds,-7.60778,110.20361,4
Sangiran Early Man Site,-7.4,110.8166667,4
Ujung Kulon National Park,-6.75,105.3333333,4
Komodo National Park,-8.54333,119.48944,4
Prambanan Temple Compounds,-7.75222,110.49167,4
Lorentz National Park,-4.75,137.83333,4
Tropical Rainforest Heritage of Sumatra,-2.5,101.5,4
Cultural Landscape of Bali Province: the <em>Subak</em> System as a Manifestation of the <em>Tri Hita Karana</em> Philosophy,-8.259166667,115.4027778,4
Ombilin Coal Mining Heritage of Sawahlunto,-0.7666255556,100.7378833,4
Tchogha Zanbil,32.0833,48.53333333,4
Persepolis,29.93444,52.89028,4
"Meidan Emam, Esfahan",32.65745,51.67777778,4
Takht-e Soleyman,36.60388889,47.235,4
Pasargadae,30.19383,53.16729,4
Soltaniyeh,36.43528,48.79667,4
Bam and its Cultural Landscape,29.11683,58.36666667,4
Bisotun,34.38833333,47.43666667,4
Armenian Monastic Ensembles of Iran,38.97888889,45.47333333,4
Shushtar Historical Hydraulic System,32.01861111,48.83583333,4
Sheikh Safi al-din Khānegāh and Shrine Ensemble in Ardabil,38.24861111,48.29138889,4
Tabriz Historic Bazaar Complex,38.08138889,46.29305556,4
The Persian Garden,30.16666667,53.16666667,4
Masjed-e Jāmé of Isfahan  ,32.66972222,51.68527778,4
Gonbad-e Qābus,37.25802778,55.169,4
Golestan Palace,35.68036667,51.42051111,4
Cultural Landscape of Maymand,30.16805556,55.37555556,4
Susa,32.18944444,48.25611111,4
Shahr-i Sokhta,30.59388889,61.32777778,4
Lut Desert,30.21611111,58.83888889,4
The Persian Qanat,34.29,58.65444444,4
Historic City of Yazd,31.90138889,54.36916667,4
Sassanid Archaeological Landscape of Fars Region,29.77748056,51.57045,4
Hyrcanian Forests,37.42147222,55.72427778,4
Samarra Archaeological City,34.34098944,43.82354306,4
Hatra,35.58806,42.71833,4
Babylon,32.54196944,44.42083333,4
Ashur (Qal'at Sherqat),35.45666667,43.26111111,4
Erbil Citadel,36.19111111,44.00916667,4
The Ahwar of Southern Iraq: Refuge of Biodiversity and the Relict Landscape of the Mesopotamian Cities,31.56222222,47.65777778,4
Brú na Bóinne - Archaeological Ensemble of the Bend of the Boyne,53.69167,-6.45,4
Sceilg Mhichíl,51.77194,-10.53861,4
Masada,31.3135,35.35275,4
Old City of Acre,32.92833333,35.08388889,4
White City of Tel-Aviv – the Modern Movement,32.06666667,34.78333333,4
Incense Route - Desert Cities in the Negev,30.54111,35.16083,4
"Biblical Tels - Megiddo, Hazor, Beer Sheba",32.59722,35.18222,4
Bahá’i Holy Places in Haifa and the Western Galilee,32.82939667,34.97164889,4
Caves of Maresha and Bet-Guvrin in the Judean Lowlands as a Microcosm of the Land of the Caves,31.6,34.89555556,4
Sites of Human Evolution at Mount Carmel: The Nahal Me’arot / Wadi el-Mughara Caves,32.67,34.96527778,4
Necropolis of Bet She’arim: A Landmark of Jewish Renewal,32.70222222,35.12694444,4
Church and Dominican Convent of Santa Maria delle Grazie with “The Last Supper” by Leonardo da Vinci,45.46588889,9.1705,4
Rock Drawings in Valcamonica,45.95705556,10.29733333,4
Historic Centre of Florence,43.77306,11.25611,4
Medici Villas and Gardens in Tuscany,43.85777778,11.30416667,4
Venice and its Lagoon,45.43430556,12.33894444,4
"Piazza del Duomo, Pisa",43.72305556,10.39638889,4
Castel del Monte,41.08480556,16.27094444,4
"18th-Century Royal Palace at Caserta with the Park, the Aqueduct of Vanvitelli, and the San Leucio Complex",41.07333,14.32639,4
Historic Centre of San Gimignano,43.46806,11.04167,4
The Sassi and the Park of the Rupestrian Churches of Matera,40.66638889,16.61027778,4
City of Vicenza and the Palladian Villas of the Veneto,45.54916667,11.54944444,4
Historic Centre of Siena,43.31861111,11.33166667,4
Historic Centre of Naples,40.85138889,14.26277778,4
Crespi d'Adda,45.59333,9.53833,4
"Ferrara, City of the Renaissance, and its Po Delta",44.83777778,11.61944444,4
The <I>Trulli</I> of Alberobello,40.7825,17.23694,4
Early Christian Monuments of Ravenna,44.42041667,12.19625,4
Historic Centre of the City of Pienza,43.07694444,11.67861111,4
City of Verona,45.43861111,10.99388889,4
Residences of the Royal House of Savoy,45.07253,7.68572,4
"Botanical Garden (Orto Botanico), Padua",45.39911111,11.88066667,4
Archaeological Area and the Patriarchal Basilica of Aquileia,45.76833333,13.3675,4
"Portovenere, Cinque Terre, and the Islands (Palmaria, Tino and Tinetto)",44.10694,9.72917,4
"Cathedral, Torre Civica and Piazza Grande, Modena",44.64624,10.92568,4
Historic Centre of Urbino,43.725,12.63333,4
"Archaeological Areas of Pompei, Herculaneum and Torre Annunziata",40.75,14.48333333,4
Costiera Amalfitana,40.65,14.6,4
Archaeological Area of Agrigento,37.28972222,13.59333333,4
Villa Romana del Casale,37.36611,14.33417,4
Su Nuraxi di Barumini,39.70583333,8.991388889,4
"Cilento and Vallo di Diano National Park with the Archeological Sites of Paestum and Velia, and the Certosa di Padula",40.28333333,15.26666667,4
Villa Adriana (Tivoli),41.94416667,12.77197222,4
Isole Eolie (Aeolian Islands),38.48786111,14.94558333,4
"Assisi, the Basilica of San Francesco and Other Franciscan Sites",43.06616667,12.62244444,4
Late Baroque Towns of the Val di Noto (South-Eastern Sicily),36.89319444,15.06891667,4
"Villa d'Este, Tivoli",41.96391667,12.79625,4
Val d'Orcia,43.06666667,11.55,4
<I>Sacri Monti</I> of Piedmont and Lombardy,45.97455556,9.169555556,4
Etruscan Necropolises of Cerveteri and Tarquinia,42.00683333,12.10188889,4
Syracuse and the Rocky Necropolis of Pantalica,37.05944,15.29306,4
Genoa: <i>Le Strade Nuove</i> and the system of the<i> Palazzi dei Rolli</i>,44.41222222,8.931111111,4
The Dolomites,46.61305556,12.16305556,4
Mantua and Sabbioneta,45.15944444,10.79444444,4
Longobards in Italy. Places of the Power (568-774 A.D.),46.09416667,13.43305556,4
Vineyard Landscape of Piedmont: Langhe-Roero and Monferrato,44.60861111,7.963611111,4
Mount Etna,37.75611111,14.99666667,4
Arab-Norman Palermo and the Cathedral Churches of Cefalú and Monreale,38.11083333,13.35305556,4
"Ivrea, industrial city of the 20th century",45.4575,7.869166667,4
Le Colline del Prosecco di Conegliano e Valdobbiadene,45.95302778,12.22611111,4
Blue and John Crow Mountains ,18.0775,-76.57111111,4
Buddhist Monuments in the Horyu-ji Area,34.61666667,135.7333333,4
Himeji-jo,34.83333333,134.7,4
Yakushima,30.33333333,130.5333333,4
Shirakami-Sanchi,40.47,140.13,4
"Historic Monuments of Ancient Kyoto (Kyoto, Uji and Otsu Cities)",34.98055556,135.7694444,4
Historic Villages of Shirakawa-go and Gokayama,36.4,136.8833333,4
Hiroshima Peace Memorial (Genbaku Dome),34.38333333,132.45,4
Itsukushima Shinto Shrine,34.29441667,132.3246389,4
Historic Monuments of Ancient Nara,34.67555556,135.8394444,4
Shrines and Temples of Nikko,36.7475,139.6105556,4
Gusuku Sites and Related Properties of the Kingdom of Ryukyu,26.20861111,127.6827778,4
Sacred Sites and Pilgrimage Routes in the Kii Mountain Range,33.83694444,135.7763889,4
Shiretoko,43.94944,144.96583,4
Iwami Ginzan Silver Mine and its Cultural Landscape,35.11277778,132.435,4
"Hiraizumi – Temples, Gardens and Archaeological Sites Representing the Buddhist Pure Land",39.00111111,141.1077778,4
Ogasawara Islands,27.71833333,142.0997222,4
"Fujisan, sacred place and source of artistic inspiration",35.36083333,138.7275,4
Tomioka Silk Mill and Related Sites,36.25527778,138.8877778,4
"Sites of Japan’s Meiji Industrial Revolution: Iron and Steel, Shipbuilding and Coal Mining",34.43055556,131.4122222,4
Hidden Christian Sites in the Nagasaki Region,32.80222222,128.9038889,4
Sacred Island of Okinoshima and Associated Sites in the Munakata Region ,34.245,130.1055556,4
Mozu-Furuichi Kofun Group: Mounded Tombs of Ancient Japan,34.56222222,135.6094444,4
Old City of Jerusalem and its Walls,31.78333333,35.21666667,4
Petra,30.33056,35.44333,4
Quseir Amra,31.80194,36.58583,4
Um er-Rasas (Kastrom Mefa'a),31.50167,35.92056,4
Wadi Rum Protected Area,29.63972222,35.43388889,4
Baptism Site “Bethany Beyond the Jordan” (Al-Maghtas),31.83722222,35.55277778,4
Saryarka – Steppe and Lakes of Northern Kazakhstan,50.43333333,69.18888889,4
Mausoleum of Khoja Ahmed Yasawi,43.29305556,68.27444444,4
Petroglyphs within the Archaeological Landscape of Tamgaly,43.80333333,75.535,4
Mount Kenya National Park/Natural Forest,-0.155,37.31555556,4
Lake Turkana National Parks,3.051305556,36.50366667,4
Lamu Old Town,-2.284444444,40.8525,4
Kenya Lake System in the Great Rift Valley,-0.4425,36.24,4
Sacred Mijikenda Kaya Forests,-3.931944444,39.59611111,4
"Fort Jesus, Mombasa",-4.062777778,39.67944444,4
Thimlich Ohinga Archaeological Site,-0.8913380556,34.326107,4
Phoenix Islands Protected Area,-3.649722222,-172.8575,4
Sulaiman-Too Sacred Mountain,40.53111111,72.78277778,4
Town of Luang Prabang,19.88889,102.13333,4
Vat Phou and Associated Ancient Settlements within the Champasak Cultural Landscape,14.84833333,105.8222222,4
Megalithic Jar Sites in Xiengkhuang – Plain of Jars,19.43105556,103.1522222,4
Historic Centre of Riga,56.95417,24.11667,4
Anjar,33.72583,35.92972,4
Baalbek,34.00707,36.20494,4
Byblos,34.11917,35.6475,4
Tyre,33.27194,35.19444,4
Ouadi Qadisha (the Holy Valley) and the Forest of the Cedars of God (Horsh Arz el-Rab),34.24333,36.04889,4
Archaeological Site of Leptis Magna,32.63833,14.29306,4
Archaeological Site of Sabratha,32.80528,12.485,4
Archaeological Site of Cyrene,32.825,21.85833,4
Rock-Art Sites of Tadrart Acacus,24.83333,10.33333,4
Old Town of Ghadamès,30.13333333,9.5,4
Vilnius Historic Centre,54.68667,25.29306,4
Kernavė  Archaeological Site (Cultural Reserve of Kernavė),54.88777778,24.83055556,4
City of Luxembourg: its Old Quarters and Fortifications,49.61,6.13333,4
Tsingy de Bemaraha Strict Nature Reserve,-18.66667,44.75,4
Royal Hill of Ambohimanga,-18.75917,47.56278,4
Rainforests of the Atsinanana,-14.45972222,49.7025,4
Lake Malawi National Park,-14.03333,34.88333,4
Chongoni Rock-Art Area,-14.29333333,34.27916667,4
Kinabalu Park,6.25,116.5,4
Gunung Mulu National Park,4.13333,114.91667,4
"Melaka and George Town, Historic Cities of the Straits of Malacca",5.421388889,100.3458333,4
Archaeological Heritage of the Lenggong Valley,5.067908333,100.9723278,4
Old Towns of Djenné,13.90639,-4.555,4
Timbuktu,16.77333333,-2.999444444,4
Cliff of Bandiagara (Land of the Dogons),14.33333,-3.41667,4
Tomb of Askia,16.2898,-0.04456,4
Ħal Saflieni Hypogeum,35.87134,14.50739,4
City of Valletta,35.90056,14.51444,4
Megalithic Temples of Malta,36.04908,14.26947,4
Bikini Atoll Nuclear Test Site,11.6,165.3805556,4
Banc d'Arguin National Park,20.23472,-16.10889,4
"Ancient <I>Ksour</I> of Ouadane, Chinguetti, Tichitt and Oualata",20.92889,-11.62361,4
Aapravasi Ghat,-20.15863889,57.50316667,4
Le Morne Cultural Landscape,-20.45194444,57.32833333,4
Sian Ka'an,19.38333,-87.79167,4
Pre-Hispanic City and National Park of Palenque,17.48333,-92.05,4
Historic Centre of Mexico City and Xochimilco,19.41833,-99.13278,4
Pre-Hispanic City of Teotihuacan,19.69167,-98.84167,4
Historic Centre of Oaxaca and Archaeological Site of Monte Albán,17.06194,-96.72167,4
Historic Centre of Puebla,19.04722,-98.20833,4
Historic Town of Guanajuato and Adjacent Mines,21.01694,-101.25556,4
Pre-Hispanic City of Chichen-Itza,20.66667,-88.6,4
Whale Sanctuary of El Vizcaino,27.79222,-114.22778,4
"Archaeological Zone of Paquimé, Casas Grandes",30.37583,-107.95556,4
Historic Centre of Morelia,19.70444,-101.19167,4
"El Tajin, Pre-Hispanic City",20.47639,-97.3775,4
Historic Centre of Zacatecas,22.76667,-102.55556,4
Earliest 16th-Century Monasteries on the Slopes of Popocatepetl,18.93472,-98.89778,4
Rock Paintings of the Sierra de San Francisco,27.65556,-112.91611,4
Pre-Hispanic Town of Uxmal,20.36166667,-89.77027778,4
Historic Monuments Zone of Querétaro,20.58333333,-100.3666667,4
"Hospicio Cabañas, Guadalajara",20.67388889,-103.3397222,4
Historic Monuments Zone of Tlacotalpan,18.60833333,-95.65833333,4
Historic Fortified Town of Campeche,19.84639,-90.53722,4
Archaeological Monuments Zone of Xochicalco,18.81028,-99.275,4
"Ancient Maya City and Protected Tropical Forests of Calakmul, Campeche",18.05302778,-89.73728333,4
Franciscan Missions in the Sierra Gorda of Querétaro,21.20438889,-99.46411111,4
Luis Barragán House and Studio,19.41833333,-99.19833333,4
Islands and Protected Areas of the Gulf of California,27.62667,-112.54583,4
Agave Landscape and Ancient Industrial Facilities of Tequila,20.86305556,-103.7786111,4
Central University City Campus of the <i>Universidad Nacional Autónoma de México</i> (UNAM),19.33222222,-99.18805556,4
Protective town of San Miguel and the Sanctuary of Jesús Nazareno de Atotonilco,20.91444444,-100.7463889,4
Monarch Butterfly Biosphere Reserve,19.60638889,-100.2416667,4
Camino Real de Tierra Adentro,22.60805556,-102.3791667,4
Prehistoric Caves of Yagul and Mitla in the Central Valley of Oaxaca,16.95083333,-96.42111111,4
El Pinacate and Gran Desierto de Altar Biosphere Reserve,32,-113.9166667,4
Aqueduct of Padre Tembleque Hydraulic System,19.83527778,-98.66256667,4
Archipiélago de Revillagigedo,18.78805556,-110.9752778,4
Tehuacán-Cuicatlán Valley: originary habitat of Mesoamerica,17.98996111,-97.18715278,4
Nan Madol: Ceremonial Centre of Eastern Micronesia,6.839722222,158.3308333,4
Orkhon Valley Cultural Landscape,47.55666667,102.8313889,4
Petroglyphic Complexes of the Mongolian Altai,49.33388889,88.39527778,4
Great Burkhan Khaldun Mountain and its surrounding sacred landscape,48.76197778,109.0093278,4
Durmitor National Park,43.133,19.0166,4
Natural and Culturo-Historical Region of Kotor,42.48333,18.7,4
Medina of Fez,34.06111,-4.97778,4
Medina of Marrakesh,31.63139,-7.98667,4
Ksar of Ait-Ben-Haddou,31.04722,-7.12889,4
Medina of Essaouira (formerly Mogador),31.51411111,-9.770305556,4
Historic City of Meknes,33.88333,-5.55833,4
Archaeological Site of Volubilis,34.07389,-5.55694,4
Medina of Tétouan (formerly known as Titawin),35.57083,-5.36667,4
Portuguese City of Mazagan (El Jadida),33.25667,-8.50194,4
"Rabat, Modern Capital and Historic City: a Shared Heritage",34.02416667,-6.822777778,4
Island of Mozambique,-15.03417,40.73583,4
Pyu Ancient Cities,22.47,95.81861111,4
Bagan,21.14888889,94.88444444,4
Twyfelfontein or /Ui-//aes,-20.59558333,14.37258333,4
Namib Sand Sea,-24.88527778,15.40777778,4
Sagarmatha National Park,27.96528,86.91306,4
Kathmandu Valley ,27.70395,85.30858,4
Chitwan National Park,27.5,84.33333,4
"Lumbini, the Birthplace of the Lord Buddha",27.46889,83.27611,4
Schokland and Surroundings,52.63861111,5.771666667,4
Defence Line of Amsterdam,52.37444444,4.893055556,4
Mill Network at Kinderdijk-Elshout,51.8825,4.649444444,4
"Historic Area of Willemstad, Inner City and Harbour, Curaçao",12.10194,-68.90222,4
Ir.D.F. Woudagemaal (D.F. Wouda Steam Pumping Station),52.84583,5.67889,4
Droogmakerij de Beemster (Beemster Polder),52.54888889,4.911111111,4
Rietveld Schröderhuis (Rietveld Schröder House),52.08533333,5.147555556,4
Seventeenth-Century Canal Ring Area of Amsterdam inside the Singelgracht,52.365,4.887777778,4
Van Nellefabriek,51.92333333,4.418333333,4
Tongariro National Park,-39.29083333,175.5622222,4
Te Wahipounamu – South West New Zealand,-45.03602778,167.3196111,4
New Zealand Sub-Antarctic Islands,-50.75,166.1044444,4
Ruins of León Viejo,12.39722,-86.61028,4
León Cathedral,12.435,-86.87805556,4
Air and Ténéré Natural Reserves,18,9,4
Historic Centre of Agadez,16.97361111,7.991388889,4
Sukur Cultural Landscape,10.74056,13.57194,4
Osun-Osogbo Sacred Grove,7.75556,4.55222,4
Røros Mining Town and the Circumference,62.57388889,11.38555556,4
Urnes Stave Church,61.3,7.33333,4
Bryggen,60.39722,5.32306,4
Rock Art of Alta,69.95,23.18333,4
Vegaøyan – The Vega Archipelago,65.61667,11.75,4
West Norwegian Fjords – Geirangerfjord and Nærøyfjord,62.11667,7.16667,4
Rjukan-Notodden Industrial Heritage Site,59.87861111,8.593611111,4
Bahla Fort,22.96417,57.30111,4
"Archaeological Sites of Bat, Al-Khutm and Al-Ayn",23.26986,56.745,4
Land of Frankincense,18.25333,53.64759,4
<i>Aflaj</i> Irrigation Systems of Oman,22.99888889,57.53605556,4
Ancient City of Qalhat,22.69522222,59.37811111,4
Archaeological Ruins at Moenjodaro,27.32916667,68.13888889,4
Taxila,33.77916667,72.8875,4
Buddhist Ruins of Takht-i-Bahi and Neighbouring City Remains at Sahr-i-Bahlol,34.32083333,71.94583333,4
"Historical Monuments at Makli, Thatta",24.76666667,67.9,4
Fort and Shalamar Gardens in Lahore,31.59027778,74.30972222,4
Rohtas Fort,32.9625,73.58888889,4
Rock Islands Southern Lagoon,7.246925,134.3525,4
"Birthplace of Jesus: Church of the Nativity and the Pilgrimage Route, Bethlehem",31.70435278,35.2075,4
"Palestine: Land of Olives and Vines – Cultural Landscape of Southern Jerusalem, Battir",31.71972222,35.13055556,4
Hebron/Al-Khalil Old Town,31.52416667,35.10888889,4
Fortifications on the Caribbean Side of Panama: Portobelo-San Lorenzo,9.553888889,-79.65583333,4
Darien National Park,7.736111111,-77.54722222,4
Archaeological Site of Panamá Viejo and Historic District of Panamá,8.951111111,-79.54055556,4
Coiba National Park and its Special Zone of Marine Protection,7.433,-81.766,4
Kuk Early Agricultural Site,-5.783711111,144.3317222,4
Jesuit Missions of La Santísima Trinidad de Paraná and Jesús de Tavarangue,-27.13333,-55.7,4
City of Cuzco,-13.52222,-71.98333,4
Historic Sanctuary of Machu Picchu,-13.11666667,-72.58333333,4
Chavin (Archaeological Site),-9.592772544,-77.1784535,4
Huascarán National Park,-9.33333,-77.4,4
Chan Chan Archaeological Zone,-8.1,-79.08333,4
Manú National Park,-12.25,-71.75,4
Historic Centre of Lima,-12.05139,-77.04306,4
Río Abiseo National Park,-7.75,-77.25,4
Lines and Geoglyphs of Nasca and Palpa,-14.72583,-75.14861,4
Historical Centre of the City of Arequipa,-16.4,-71.53333333,4
Sacred City of Caral-Supe,-10.89166667,-77.52138889,4
Historic City of Vigan,17.575,120.3875,4
Puerto-Princesa Subterranean River National Park,10.16666667,118.9166667,4
Tubbataha Reefs Natural Park,8.953333333,119.8675,4
Baroque Churches of the Philippines,14.59,120.97,4
Rice Terraces of the Philippine Cordilleras,16.93389,121.13667,4
Mount Hamiguitan Range Wildlife Sanctuary,6.717169444,126.1734306,4
Historic Centre of Kraków,50.06138889,19.93722222,4
Historic Centre of Warsaw,52.26639,21.01167,4
Auschwitz Birkenau <br /><small>German Nazi Concentration and Extermination Camp (1940-1945)</small>,50.03888889,19.175,4
Wieliczka and Bochnia Royal Salt Mines,49.97916667,20.06388889,4
Old City of Zamość,50.71667,23.26667,4
Medieval Town of Toruń,53.01,18.61944,4
Castle of the Teutonic Order in Malbork,54.04166667,19.03333333,4
Kalwaria Zebrzydowska: the Mannerist Architectural and Park Landscape Complex and Pilgrimage Park,49.86666667,19.66666667,4
Wooden Churches of Southern Małopolska,49.75,21.23333333,4
Churches of Peace in Jawor and Świdnica,51.05427778,16.19594444,4
Centennial Hall in Wrocław,51.10694722,17.07701389,4
Tarnowskie Góry Lead-Silver-Zinc Mine and its Underground Water Management System,50.44269722,18.85122778,4
Krzemionki Prehistoric Striped Flint Mining Region,50.96797222,21.50230556,4
Central Zone of the Town of Angra do Heroismo in the Azores,38.655,-27.22,4
Monastery of the Hieronymites and Tower of Belém in Lisbon,38.69194,-9.21583,4
Monastery of Batalha,39.65778,-8.82694,4
Convent of Christ in Tomar,39.60472,-8.4175,4
Historic Centre of Évora,38.57306,-7.90778,4
Monastery of Alcobaça,39.55,-8.97667,4
Cultural Landscape of Sintra,38.78333,-9.41667,4
"Historic Centre of Oporto, Luiz I Bridge and Monastery of Serra do Pilar ",41.14166667,-8.616666667,4
Laurisilva of Madeira,32.76666667,-17,4
Historic Centre of Guimarães,41.443731,-8.292803,4
Alto Douro Wine Region,41.10166667,-7.798888889,4
Landscape of the Pico Island Vineyard Culture,38.51344444,-28.54116667,4
Garrison Border Town of Elvas and its Fortifications,38.88061944,-7.163322222,4
University of Coimbra – Alta and Sofia,40.20781111,-8.425775,4
"Royal Building of <i>Mafra</i> – Palace, Basilica, Convent, <i>Cerco</i> Garden and Hunting Park (<i>Tapada</i>)",38.93716667,-9.325527778,4
Sanctuary of Bom Jesus do Monte in Braga,41.55494444,-8.377027778,4
Al Zubarah Archaeological Site,25.97805556,51.02972222,4
Seokguram Grotto and Bulguksa Temple,35.78333333,129.35,4
"Haeinsa Temple Janggyeong Panjeon, the Depositories for the <I>Tripitaka Koreana</I> Woodblocks",35.8,128.1,4
Jongmyo Shrine,37.55,126.98333,4
Changdeokgung Palace Complex,37.55,126.9833333,4
Hwaseong Fortress,37.27222,127.00833,4
Gyeongju Historic Areas,35.78889,129.22667,4
"Gochang, Hwasun and Ganghwa Dolmen Sites",34.96667,126.92917,4
Jeju Volcanic Island and Lava Tubes,33.46888889,126.7202778,4
Royal Tombs of the Joseon Dynasty,37.19722222,128.4527778,4
Historic Villages of Korea: Hahoe and Yangdong,36.53916667,128.5166667,4
Namhansanseong,37.47888889,127.1811111,4
Baekje Historic Areas,36.46194444,127.1272222,4
"Seowon, Korean Neo-Confucian Academies",36.72729722,128.8434278,4
"Sansa, Buddhist Mountain Monasteries in Korea",36.54194444,127.8333333,4
Danube Delta,45.08333,29.5,4
Villages with Fortified Churches in Transylvania,46.13583333,24.77305556,4
Monastery of Horezu,45.18333333,24.01666667,4
Churches of Moldavia,47.77833333,25.71277778,4
Historic Centre of Sighişoara,46.21777778,24.79222222,4
Wooden Churches of Maramureş,47.82083333,24.05583333,4
Dacian Fortresses of the Orastie Mountains,45.62305556,23.31194444,4
Historic Centre of Saint Petersburg and Related Groups of Monuments,59.95,30.31833,4
Kizhi Pogost,62.07138889,35.2275,4
"Kremlin and Red Square, Moscow",55.74583,37.62972,4
Historic Monuments of Novgorod and Surroundings,58.53333,31.28333,4
Cultural and Historic Ensemble of the Solovetsky Islands,65.08333333,35.66666667,4
White Monuments of Vladimir and Suzdal,56.15,40.41666667,4
"Church of the Ascension, Kolomenskoye",55.65556,37.67389,4
Architectural Ensemble of the Trinity Sergius Lavra in Sergiev Posad,56.31035,38.1312,4
Virgin Komi Forests,63.62583333,58.9525,4
Lake Baikal,53.17361111,107.6625,4
Volcanoes of Kamchatka,56.33333333,158.5,4
Central Sikhote-Alin,46.68333333,136.6611111,4
Golden Mountains of Altai,50.46666667,86,4
Western Caucasus,44,40,4
Historic and Architectural Complex of the Kazan Kremlin,55.79111111,49.095,4
Bolgar Historical and Archaeological Complex,54.97888889,49.05638889,4
Ensemble of the Ferapontov Monastery,59.95,38.56666667,4
Natural System of Wrangel Island Reserve,71.18888889,-179.7152778,4
"Citadel, Ancient City and Fortress Buildings of Derbent",42.05297222,48.29719444,4
Ensemble of the Novodevichy Convent,55.72611111,37.55508333,4
Historical Centre of the City of Yaroslavl,57.65278,39.87611,4
Putorana Plateau,69.04694444,94.15805556,4
Lena Pillars Nature Park,60.66666667,127,4
Churches of the Pskov School of Architecture,57.80719444,28.32855556,4
Assumption Cathedral and Monastery of the town-island of Sviyazhsk,55.77027778,48.65277778,4
Brimstone Hill Fortress National Park,17.34694,-62.83722,4
Pitons Management Area,13.80708333,-61.07036111,4
San Marino Historic Centre and Mount Titano,43.93277778,12.45194444,4
Al-Hijr Archaeological Site (Madâin Sâlih),26.78361111,37.955,4
At-Turaif District in ad-Dir'iyah,24.73413333,46.57246667,4
"Historic Jeddah, the Gate to Makkah",21.48388889,39.1875,4
Rock Art in the Hail Region of Saudi Arabia,28.01055556,40.91305556,4
"Al-Ahsa Oasis, an Evolving Cultural Landscape",25.40216667,49.63056944,4
Djoudj National Bird Sanctuary,16.5,-16.16667,4
Island of Gorée,14.66722,-17.40083,4
Niokolo-Koba National Park,13.06667,-12.71667,4
Island of Saint-Louis,16.02778,-16.50444,4
Saloum Delta,13.83527778,-16.49861111,4
"Bassari Country: Bassari, Fula and Bedik Cultural Landscapes",12.59333333,-12.84583333,4
Stari Ras and Sopoćani,43.11889,20.42278,4
Studenica Monastery,43.48611,20.53667,4
Medieval Monuments in Kosovo,42.66111111,20.26555556,4
"Gamzigrad-Romuliana, Palace of Galerius",43.89930556,22.18611111,4
Aldabra Atoll,-9.416666667,46.41666667,4
Vallée de Mai Nature Reserve,-4.32917,55.7375,4
Singapore Botanic Gardens,1.315277778,103.8161111,4
Historic Town of Banská Štiavnica and the Technical Monuments in its Vicinity,48.46111,18.9,4
"Levoča, Spišský Hrad and the Associated Cultural Monuments",48.99944444,20.7675,4
Vlkolínec,49.03916667,19.27833333,4
Bardejov Town Conservation Reserve,49.29277778,21.27555556,4
Wooden Churches of the Slovak part of the Carpathian Mountain Area,49.33611111,19.55833333,4
Škocjan Caves,45.66667,14,4
East Rennell,-11.68333,160.33333,4
iSimangaliso Wetland Park,-27.83889,32.55,4
Fossil Hominid Sites of South Africa,-24.15861,29.17694,4
Robben Island,-33.8,18.36666667,4
Cape Floral Region Protected Areas,-34.36111111,18.475,4
Mapungubwe Cultural Landscape,-22.1925,29.23889,4
Vredefort Dome,-26.86,27.26,4
Richtersveld Cultural and Botanical Landscape,-28.6,17.20388889,4
ǂKhomani Cultural Landscape,-25.68761111,20.37458333,4
Barberton Makhonjwa Mountains,-25.97388889,31.01388889,4
Cave of Altamira and Paleolithic Cave Art of Northern Spain,43.38252778,-4.116166667,4
Old Town of Segovia and its Aqueduct,40.94847222,-4.11675,4
Monuments of Oviedo and the Kingdom of the Asturias,43.36262,-5.84303,4
Historic Centre of Cordoba,37.87919444,-4.779722222,4
"Alhambra, Generalife and Albayzín, Granada",37.17667,-3.59444,4
Burgos Cathedral,42.34073333,-3.704011111,4
"Monastery and Site of the Escurial, Madrid",40.58175,-4.126416667,4
Works of Antoni Gaudí ,41.41338,2.152972,4
Santiago de Compostela (Old Town),42.88076,-8.54468,4
Old Town of Ávila with its Extra-Muros Churches,40.65645,-4.70012,4
Mudejar Architecture of Aragon,40.34389,-1.10722,4
Historic City of Toledo,39.86688889,-4.029416667,4
Garajonay National Park,28.12625,-17.23722222,4
Old City of Salamanca,40.96525,-5.6645,4
"Cathedral, Alcázar and Archivo de Indias in Seville",37.38384,-5.99155,4
Old Town of Cáceres,39.47444,-6.37,4
"Ibiza, Biodiversity and Culture",38.91113889,1.435194444,4
Poblet Monastery,41.38083,1.0825,4
Renaissance Monumental Ensembles of Úbeda and Baeza,38.01131,-3.37122,4
Archaeological Ensemble of Mérida,38.91611,-6.33778,4
Royal Monastery of Santa María de Guadalupe,39.45285,-5.3275,4
Routes of Santiago de Compostela: <i>Camino Francés</i> and Routes of Northern Spain ,43.335,-6.414722222,4
Doñana National Park,36.9477,-6.358861,4
Historic Walled Town of Cuenca,40.07662,-2.13174,4
La Lonja de la Seda de Valencia,39.47441667,-0.378444444,4
Las Médulas,42.46939,-6.77075,4
"Palau de la Música Catalana and Hospital de Sant Pau, Barcelona",41.38778,2.175,4
San Millán Yuso and Suso Monasteries,42.32586,-2.86496,4
Rock Art of the Mediterranean Basin on the Iberian Peninsula,39.78995,-1.03331,4
Archaeological Ensemble of Tárraco,41.11472222,1.259305556,4
University and Historic Precinct of Alcalá de Henares,40.48138889,-3.368055556,4
San Cristóbal de La Laguna,28.47788889,-16.31177778,4
Palmeral of Elche,38.26666667,-0.716666667,4
Roman Walls of Lugo,43.01111,-7.55333,4
Catalan Romanesque Churches of the Vall de Boí,42.50472222,0.803611111,4
Archaeological Site of Atapuerca,42.37138889,-3.547222222,4
Aranjuez Cultural Landscape,40.03645,-3.60934,4
Vizcaya Bridge,43.323175,-3.016833333,4
Teide National Park,28.27138889,-16.64361111,4
Tower of Hercules,43.38583333,-8.406388889,4
Cultural Landscape of the Serra de Tramuntana,39.73083333,2.694722222,4
Antequera Dolmens Site,37.025,-4.544444444,4
Caliphate City of Medina Azahara,37.88588889,-4.867694444,4
Risco Caido and the Sacred Mountains of Gran Canaria Cultural Landscape,28.04438889,-15.66119444,4
Sacred City of Anuradhapura,8.333333333,80.38333333,4
Ancient City of Polonnaruwa,7.915833333,81.00055556,4
Ancient City of Sigiriya,7.95,80.75,4
Sinharaja Forest Reserve,6.416666667,80.5,4
Sacred City of Kandy,7.293611111,80.64027778,4
Old Town of Galle and its Fortifications,6.021388889,80.21861111,4
Golden Temple of Dambulla,7.856666667,80.64916667,4
Central Highlands of Sri Lanka,7.45245,80.8021,4
Sanganeb Marine National Park and Dungonab Bay – Mukkawar Island Marine National Park,19.73611111,37.44305556,4
Gebel Barkal and the Sites of the Napatan Region,18.537,31.82802778,4
Archaeological Sites of the Island of Meroe,16.93333333,33.71666667,4
Historic Inner City of Paramaribo,5.82611,-55.15,4
Central Suriname Nature Reserve,4,-56.5,4
Birka and Hovgården,59.33514,17.54264,4
Engelsberg Ironworks,59.96667,16.00833,4
Rock Carvings in Tanum,58.70111,11.34111,4
Skogskyrkogården,59.27556,18.09944,4
Royal Domain of Drottningholm,59.32306,17.88333,4
Hanseatic Town of Visby,57.64167,18.29583,4
"Church Town of Gammelstad, Luleå ",65.64611,22.02861,4
Laponian Area,67.33333,17.58333,4
Naval Port of Karlskrona,56.16667,15.58333,4
Agricultural Landscape of Southern Öland,56.325,16.48333,4
Mining Area of the Great Copper Mountain in Falun,60.60472,15.63083,4
"Grimeton Radio Station, Varberg",57.1,12.38333333,4
Decorated Farmhouses of Hälsingland,61.70722222,16.19583333,4
Old City of Berne,46.94806,7.45028,4
Abbey of St Gall,47.42333,9.37778,4
Benedictine Convent of St John at Müstair,46.62945,10.44765,4
"Three Castles, Defensive Wall and Ramparts of the Market-Town of Bellinzona",46.19314,9.02242,4
Swiss Alps Jungfrau-Aletsch,46.5,8.033333333,4
Swiss Tectonic Arena Sardona,46.91666667,9.25,4
"Lavaux, Vineyard Terraces",46.49194444,6.746111111,4
"La Chaux-de-Fonds / Le Locle, Watchmaking Town Planning",47.10388889,6.832777778,4
Ancient City of Damascus,33.51139,36.30639,4
Ancient City of Aleppo,36.19916667,37.16277778,4
Ancient City of Bosra,32.51806,36.48167,4
Site of Palmyra,34.55417,38.26667,4
Crac des Chevaliers and Qal’at Salah El-Din,34.78166667,36.26305556,4
Ancient Villages of Northern Syria,36.33416667,36.84416667,4
Proto-urban Site of Sarazm,39.50777778,67.46027778,4
Tajik National Park (Mountains of the Pamirs),38.765,72.30527778,4
Historic Town of Sukhothai and Associated Historic Towns,17.00722,99.78972,4
Ban Chiang Archaeological Site,17.54861,103.35833,4
Historic City of Ayutthaya,14.34778,100.56056,4
Dong Phayayen-Khao Yai Forest Complex,14.33,102.05,4
Thungyai-Huai Kha Khaeng Wildlife Sanctuaries,15.33333,98.91667,4
"Koutammakou, the Land of the Batammariba",10.06666667,1.133333333,4
Ichkeul National Park,37.16361,9.67472,4
Medina of Tunis,36.81667,10.16667,4
Archaeological Site of Carthage,36.85278,10.32333,4
Amphitheatre of El Jem,35.29639,10.70694,4
Punic Town of Kerkuane and its Necropolis,36.94639,11.09917,4
Medina of Sousse,35.82778,10.63861,4
Kairouan,35.68167,10.10389,4
Dougga / Thugga,36.42361,9.22028,4
Historic Areas of Istanbul,41.00847,28.97993,4
Göreme National Park and the Rock Sites of Cappadocia,38.66667,34.85,4
Great Mosque and Hospital of Divriği,39.371271,38.121826,4
Hattusha: the Hittite Capital,40.01389,34.62056,4
Nemrut Dağ,38.03661,38.76369,4
Xanthos-Letoon,36.335,29.32028,4
Hierapolis-Pamukkale,37.92389,29.12333,4
City of Safranbolu,41.26,32.68972,4
Archaeological Site of Troy,39.95644,26.239,4
Ephesus,37.92916667,27.35944444,4
Selimiye Mosque and its Social Complex,41.67777778,26.55944444,4
Neolithic Site of Çatalhöyük,37.66666667,32.82805556,4
Bursa and Cumalıkızık: the Birth of the Ottoman Empire,40.18473056,29.06233611,4
Pergamon and its Multi-Layered Cultural Landscape,39.12583333,27.18,4
Diyarbakır Fortress and Hevsel Gardens Cultural Landscape,37.9031,40.23930833,4
Archaeological Site of Ani,40.5,43.56666667,4
Aphrodisias,37.70833333,28.72361111,4
Göbekli Tepe,37.22324194,38.92236389,4
State Historical and Cultural Park “Ancient Merv”,37.70083,62.1775,4
Kunya-Urgench,42.18318,59.08494,4
Parthian Fortresses of Nisa,37.99972222,58.19861111,4
Bwindi Impenetrable National Park,-1.080555556,29.66138889,4
Rwenzori Mountains National Park,0.223611111,29.92416667,4
Tombs of Buganda Kings at Kasubi,0.348611111,32.55138889,4
"Kiev: Saint-Sophia Cathedral and Related Monastic Buildings, Kiev-Pechersk Lavra",50.45258,30.51686,4
L'viv – the Ensemble of the Historic Centre,49.84163,24.03198,4
Residence of Bukovinian and Dalmatian Metropolitans,48.29666667,25.92472222,4
Ancient City of Tauric Chersonese and its Chora,44.61083333,33.49138889,4
"Cultural Sites of Al Ain (Hafit, Hili, Bidaa Bint Saud and Oases Areas)",24.06777778,55.80638889,4
Giant's Causeway and Causeway Coast,55.25,-6.485277778,4
Durham Castle and Cathedral,54.77472222,-1.576111111,4
Ironbridge Gorge,52.62638889,-2.472777778,4
Studley Royal Park including the Ruins of Fountains Abbey,54.11611111,-1.573055556,4
"Stonehenge, Avebury and Associated Sites",51.17888889,-1.825277778,4
Castles and Town Walls of King Edward in Gwynedd,53.13972222,-4.276944444,4
St Kilda,57.81722222,-8.576666667,4
The English Lake District,54.47661111,-3.082416667,4
Blenheim Palace,51.84194444,-1.361388889,4
Palace of Westminster and Westminster Abbey including Saint Margaret’s Church,51.49972222,-0.128611111,4
City of Bath,51.38138889,-2.358611111,4
New Lanark,55.66333333,-3.783055556,4
Henderson Island,-24.36666667,-128.3333333,4
Tower of London,51.50805556,-0.076111111,4
"Canterbury Cathedral, St Augustine's Abbey, and St Martin's Church",51.28,1.083333333,4
Heart of Neolithic Orkney,58.99605556,-3.188666667,4
Old and New Towns of Edinburgh,55.95,-3.216666667,4
Gough and Inaccessible Islands,-40.32472222,-9.928611111,4
Maritime Greenwich,51.48116667,-0.0037777778,4
"Historic Town of St George and Related Fortifications, Bermuda",32.37944444,-64.67777778,4
Blaenavon Industrial Landscape,51.77638889,-3.088055556,4
Saltaire,53.83916667,-1.788333333,4
Dorset and East Devon Coast,50.70555556,-2.989888889,4
Derwent Valley Mills,53.02888889,-1.488055556,4
"Royal Botanic Gardens, Kew",51.48194444,-0.294027778,4
Liverpool – Maritime Mercantile City,53.40666667,-2.994444444,4
Cornwall and West Devon Mining Landscape,50.13611111,-5.383611111,4
Pontcysyllte Aqueduct and Canal,52.97027778,-3.087777778,4
The Forth Bridge,56.00111111,-3.388888889,4
Gorham's Cave Complex,36.12266944,-5.342061111,4
Jodrell Bank Observatory,53.23391667,-2.303861111,4
Ngorongoro Conservation Area,-3.18722,35.54083,4
Ruins of Kilwa Kisiwani and Ruins of Songo Mnara,-8.95778,39.52278,4
Serengeti National Park,-2.33333,34.56667,4
Stone Town of Zanzibar,-6.16306,39.18917,4
Selous Game Reserve,-9,37.4,4
Kilimanjaro National Park,-3.06667,37.36667,4
Kondoa Rock-Art Sites,-4.724444444,35.83388889,4
Mesa Verde National Park,37.26166667,-108.4855556,4
Yellowstone National Park,44.46056,-110.82778,4
Grand Canyon National Park,36.10083333,-112.0905556,4
Everglades National Park,25.55444444,-80.99638889,4
Independence Hall,39.94861111,-75.15,4
Redwood National and State Parks,41.37388889,-123.9980556,4
Mammoth Cave National Park,37.18722222,-86.10305556,4
Olympic National Park,47.74833333,-123.4488889,4
Cahokia Mounds State Historic Site,38.65861111,-90.06138889,4
Great Smoky Mountains National Park,35.59305556,-83.43555556,4
La Fortaleza and San Juan National Historic Site in Puerto Rico,18.46666667,-66.125,4
Statue of Liberty,40.68944444,-74.04472222,4
Yosemite National Park,37.74611111,-119.5966667,4
Chaco Culture,36.06377778,-107.9708333,4
Hawaii Volcanoes National Park,19.40083333,-155.1236111,4
Monticello and the University of Virginia in Charlottesville,38.03277778,-78.50388889,4
Taos Pueblo,36.43889,-105.54167,4
Carlsbad Caverns National Park,32.16666667,-104.3833333,4
Papahānaumokuākea,25.34907,-170.14582,4
Monumental Earthworks of Poverty Point,32.63694444,-91.40638889,4
San Antonio Missions,29.32805556,-98.46,4
The 20th-Century Architecture of Frank Lloyd Wright,39.90557083,-79.46647556,4
Historic Quarter of the City of Colonia del Sacramento,-34.46777778,-57.85333333,4
Fray Bentos Industrial Landscape,-33.11777778,-58.33166667,4
Itchan Kala,41.37833,60.36389,4
Historic Centre of Bukhara,39.77472,64.42861,4
Samarkand  – Crossroad of Cultures,39.66861,67,4
Historic Centre of Shakhrisyabz,39.05,66.83333,4
Chief Roi Mata’s Domain,-17.62806944,168.1777194,4
Coro and its Port,11.4,-69.68333333,4
Canaima National Park,5.33333,-61.5,4
Ciudad Universitaria de Caracas,10.49073,-66.89068,4
Ha Long Bay,20.9,107.1,4
Complex of Hué Monuments,16.46944,107.57778,4
Hoi An Ancient Town,15.88333333,108.3333333,4
My Son Sanctuary,15.51666667,108.5666667,4
Phong Nha-Ke Bang National Park,17.53722222,106.15125,4
Central Sector of the Imperial Citadel of Thang Long - Hanoi,21.03944444,105.8372222,4
Citadel of the Ho Dynasty,20.07805556,105.6047222,4
Trang An Landscape Complex,20.25666667,105.8963889,4
Old Walled City of Shibam,15.92694,48.62667,4
Old City of Sana'a,15.35555556,44.20805556,4
Historic Town of Zabid,14.19533333,43.31552778,4
Socotra Archipelago,12.5,53.83333333,4
"Mana Pools National Park, Sapi and Chewore Safari Areas",-15.81944444,29.40805556,4
Matobo Hills,-20.5,28.5,4
Great Zimbabwe National Monument,-20.28333333,30.93333333,4
Khami Ruins National Monument,-20.15833333,28.37666667,4
Ancient and Primeval Beech Forests of the Carpathians and Other Regions of Europe,49.00972222,22.33888889,4
Natural and Cultural Heritage of the Ohrid region,41.06925,20.64605556,4
"Qhapaq Ñan, Andean Road System",-18.25,-69.59166667,4
"Jesuit Missions of the Guaranis: San Ignacio Mini, Santa Ana, Nuestra Señora de Loreto and Santa Maria Mayor (Argentina), Ruins of Sao Miguel das Missoes (Brazil)",-28.54333333,-54.26583333,4
Prehistoric Pile Dwellings around the Alps,47.27833333,8.2075,4
Fertö / Neusiedlersee Cultural Landscape,47.71927778,16.72272222,4
Struve Geodetic Arc,59.05777778,26.33777778,4
Białowieża Forest,52.7275,23.98111111,4
Belfries of Belgium and France,50.17444,3.23139,4
"The Architectural Work of Le Corbusier, an Outstanding Contribution to the Modern Movement",46.46841389,6.829336111,4
W-Arly-Pendjari Complex,11.88416667,2.487777778,4
Stećci Medieval Tombstone Graveyards,43.09221389,17.92405278,4
Sangha Trinational,2.609444444,16.55416667,4
Kluane / Wrangell-St. Elias / Glacier Bay / Tatshenshini-Alsek,61.19758333,-140.9919722,4
Waterton Glacier International Peace Park,48.99605556,-113.9041667,4
Silk Roads: the Routes Network of Chang'an-Tianshan Corridor,34.30444444,108.8572222,4
Talamanca Range-La Amistad Reserves / La Amistad National Park,9.407083333,-82.93880556,4
Mount Nimba Strict Nature Reserve,7.60318,-8.39097,4
Venetian Works of Defence between the 16th and 17th Centuries: <em>Stato da Terra</em> – Western <em>Stato da Mar</em>,45.70333333,9.663611111,4
Erzgebirge/Krušnohoří Mining Region,50.40652778,12.83734444,4
Wadden Sea,53.52861111,8.556111111,4
High Coast / Kvarken Archipelago,63.3,21.3,4
Pyrénées - Mont Perdu,42.68542,-0.0005,4
Stone Circles of Senegambia,13.69111111,-15.5225,4
Muskauer Park / Park Mużakowski,51.57930556,14.72644444,4
Frontiers of the Roman Empire,54.99261111,-2.601,4
"Historic Centre of Rome, the Properties of the Holy See in that City Enjoying Extraterritorial Rights and San Paolo Fuori le Mura",41.89022222,12.49230556,4
Caves of Aggtelek Karst and Slovak Karst,48.47573,20.48687,4
Monte San Giorgio,45.88888889,8.913888889,4
Rhaetian Railway in the Albula / Bernina Landscapes,46.49833333,9.846388889,4
Western Tien-Shan,0,0,4
Maloti-Drakensberg Park,-29.76527778,29.12305556,4
Curonian Spit,55.27458,20.96239,4
Wooden <em>Tserkvas</em> of the Carpathian Region in Poland and Ukraine,49.53388889,21.03222222,4
Prehistoric Rock Art Sites in the Côa Valley and Siega Verde,40.6975,-6.661111111,4
Uvs Nuur Basin,50.275,92.71972222,4
Landscapes of Dauria,49.93022222,115.4254444,4
Heritage of Mercury. Almadén and Idrija,38.77527778,-4.838888889,4
Mosi-oa-Tunya / Victoria Falls,-17.92453,25.85539,4